{
  "universities": [
    {
      "id": 1,
      "name": "北京大学",
      "nameEn": "Peking University",
      "city": "北京",
      "province": "北京市",
      "coordinates": [39.9911, 116.3059],
      "website": "http://www.pku.edu.cn",
      "established": 1898,
      "type": "综合类",
      "specialties": ["经济学类", "法学", "生物科学", "元培实验班", "理学", "医学", "哲学", "文学", "历史学"],
      "description": "北京大学是中国第一所国立综合性大学，被誉为'中国最高学府'。",
      "ranking": 1,
      "region": "华北"
    },
    {
      "id": 2,
      "name": "清华大学",
      "nameEn": "Tsinghua University",
      "city": "北京",
      "province": "北京市",
      "coordinates": [40.0020, 116.3266],
      "website": "http://www.tsinghua.edu.cn",
      "established": 1911,
      "type": "工科类",
      "specialties": ["经济与金融", "土木工程", "建筑学", "电子信息科学类", "工程力学", "水利水电工程", "临床医学"],
      "description": "清华大学是中国最著名的工科大学，被誉为'红色工程师的摇篮'。",
      "ranking": 2,
      "region": "华北"
    },
    {
      "id": 3,
      "name": "复旦大学",
      "nameEn": "Fudan University",
      "city": "上海",
      "province": "上海市",
      "coordinates": [31.3001, 121.4978],
      "website": "http://www.fudan.edu.cn",
      "established": 1905,
      "type": "综合类",
      "specialties": ["数学", "物理", "化学", "电子信息工程", "计算机软件", "生命科学", "医学", "经济学", "法学"],
      "description": "复旦大学是中国人自主创办的第一所高等院校，被誉为'江南第一学府'。",
      "ranking": 3,
      "region": "华东"
    },
    {
      "id": 4,
      "name": "上海交通大学",
      "nameEn": "Shanghai Jiao Tong University",
      "city": "上海",
      "province": "上海市",
      "coordinates": [31.0254, 121.4338],
      "website": "http://www.sjtu.edu.cn",
      "established": 1896,
      "type": "工科类",
      "specialties": ["船舶与海洋工程", "机械工程", "计算机科学与技术", "电子信息工程", "材料科学与工程"],
      "description": "上海交通大学是中国历史最悠久的高等学府之一，被誉为'东方MIT'。",
      "ranking": 4,
      "region": "华东"
    },
    {
      "id": 5,
      "name": "浙江大学",
      "nameEn": "Zhejiang University",
      "city": "杭州",
      "province": "浙江省",
      "coordinates": [30.3097, 120.0850],
      "website": "http://www.zju.edu.cn",
      "established": 1897,
      "type": "综合类",
      "specialties": ["工科", "信息", "计算机科学与技术", "光学工程", "控制科学与工程"],
      "description": "浙江大学是中国人自己最早创办的新式高等学校之一，被誉为'东方剑桥'。",
      "ranking": 5,
      "region": "华东"
    },
    {
      "id": 6,
      "name": "中国科学技术大学",
      "nameEn": "University of Science and Technology of China",
      "city": "合肥",
      "province": "安徽省",
      "coordinates": [31.8206, 117.2272],
      "website": "http://www.ustc.edu.cn",
      "established": 1958,
      "type": "理科类",
      "specialties": ["数学类", "物理学类", "化学类", "地球物理学", "科学技术史"],
      "description": "中国科学技术大学是中国科学院所属的一所以前沿科学和高新技术为主的大学。",
      "ranking": 6,
      "region": "华东"
    },
    {
      "id": 7,
      "name": "南京大学",
      "nameEn": "Nanjing University",
      "city": "南京",
      "province": "江苏省",
      "coordinates": [32.1141, 118.7836],
      "website": "http://www.nju.edu.cn",
      "established": 1902,
      "type": "综合类",
      "specialties": ["物理学类", "化学类", "数学类", "天文学类", "地质学", "生物学"],
      "description": "南京大学是历史悠久、声誉卓著的百年名校，被誉为'中国科学社的大本营'。",
      "ranking": 7,
      "region": "华东"
    },
    {
      "id": 8,
      "name": "同济大学",
      "nameEn": "Tongji University",
      "city": "上海",
      "province": "上海市",
      "coordinates": [31.2842, 121.4948],
      "website": "http://www.tongji.edu.cn",
      "established": 1907,
      "type": "工科类",
      "specialties": ["土木工程", "建筑学", "车辆工程", "城市规划", "交通运输工程"],
      "description": "同济大学是中国最早的国立大学之一，以建筑、土木、交通等学科见长。",
      "ranking": 8,
      "region": "华东"
    },
    {
      "id": 9,
      "name": "哈尔滨工业大学",
      "nameEn": "Harbin Institute of Technology",
      "city": "哈尔滨",
      "province": "黑龙江省",
      "coordinates": [45.7417, 126.6250],
      "website": "http://www.hit.edu.cn",
      "established": 1920,
      "type": "工科类",
      "specialties": ["飞行器设计与工程", "建筑学", "土木工程", "机械工程", "材料科学与工程"],
      "description": "哈尔滨工业大学是隶属于工业和信息化部的国家重点大学，被誉为'工程师的摇篮'。",
      "ranking": 9,
      "region": "东北"
    },
    {
      "id": 10,
      "name": "西安交通大学",
      "nameEn": "Xi'an Jiaotong University",
      "city": "西安",
      "province": "陕西省",
      "coordinates": [34.2533, 108.9156],
      "website": "http://www.xjtu.edu.cn",
      "established": 1896,
      "type": "工科类",
      "specialties": ["电气工程与自动化", "自动化", "机械设计制造及其自动化", "能源动力系统及其自动化"],
      "description": "西安交通大学是国家教育部直属重点大学，是中国西部地区的最高学府。",
      "ranking": 10,
      "region": "西北"
    },
    {
      "id": 11,
      "name": "北京航空航天大学",
      "nameEn": "Beihang University",
      "city": "北京",
      "province": "北京市",
      "coordinates": [39.9590, 116.3103],
      "website": "http://www.buaa.edu.cn",
      "established": 1952,
      "type": "工科类",
      "specialties": ["飞行器设计与工程", "计算机科学与技术", "软件工程", "控制科学与工程"],
      "description": "北京航空航天大学是新中国第一所航空航天高等学府，被誉为'中国航空航天的摇篮'。",
      "ranking": 11,
      "region": "华北"
    },
    {
      "id": 12,
      "name": "天津大学",
      "nameEn": "Tianjin University",
      "city": "天津",
      "province": "天津市",
      "coordinates": [39.1308, 117.2086],
      "website": "http://www.tju.edu.cn",
      "established": 1895,
      "type": "工科类",
      "specialties": ["建筑学", "土木工程", "化学工程与工艺", "材料科学与工程", "精密仪器与光电子工程"],
      "description": "天津大学是中国第一所现代大学，开中国近代高等教育之先河。",
      "ranking": 12,
      "region": "华北"
    },
    {
      "id": 13,
      "name": "华中科技大学",
      "nameEn": "Huazhong University of Science and Technology",
      "city": "武汉",
      "province": "湖北省",
      "coordinates": [30.5197, 114.3723],
      "website": "http://www.hust.edu.cn",
      "established": 1952,
      "type": "工科类",
      "specialties": ["机械设计制造及其自动化", "电气工程及其自动化", "光信息科学与技术", "临床医学"],
      "description": "华中科技大学是教育部直属的全国重点大学，被誉为'新中国高等教育发展的缩影'。",
      "ranking": 13,
      "region": "华中"
    },
    {
      "id": 14,
      "name": "东南大学",
      "nameEn": "Southeast University",
      "city": "南京",
      "province": "江苏省",
      "coordinates": [32.0617, 118.7789],
      "website": "http://www.seu.edu.cn",
      "established": 1902,
      "type": "工科类",
      "specialties": ["建筑学", "土木工程", "电子科学与技术", "信息与通信工程", "交通运输工程"],
      "description": "东南大学是中央直管、教育部直属的全国重点大学，素有'学府圣地'和'东南学府第一流'之美誉。",
      "ranking": 14,
      "region": "华东"
    },
    {
      "id": 15,
      "name": "北京理工大学",
      "nameEn": "Beijing Institute of Technology",
      "city": "北京",
      "province": "北京市",
      "coordinates": [39.9590, 116.3203],
      "website": "http://www.bit.edu.cn",
      "established": 1940,
      "type": "工科类",
      "specialties": ["兵器类", "车辆工程", "光学工程", "信息与通信工程", "控制科学与工程"],
      "description": "北京理工大学是中国共产党创办的第一所理工科大学，被誉为'红色国防工程师的摇篮'。",
      "ranking": 15,
      "region": "华北"
    },
    {
      "id": 16,
      "name": "南开大学",
      "nameEn": "Nankai University",
      "city": "天津",
      "province": "天津市",
      "coordinates": [39.1308, 117.2086],
      "website": "http://www.nankai.edu.cn",
      "established": 1919,
      "type": "综合类",
      "specialties": ["金融工程", "会计学", "数学类", "化学类", "历史学", "经济学"],
      "description": "南开大学是敬爱的周恩来总理的母校，被誉为'学府北辰'。",
      "ranking": 16,
      "region": "华北"
    },
    {
      "id": 17,
      "name": "中山大学",
      "nameEn": "Sun Yat-sen University",
      "city": "广州",
      "province": "广东省",
      "coordinates": [23.0965, 113.3212],
      "website": "http://www.sysu.edu.cn",
      "established": 1924,
      "type": "综合类",
      "specialties": ["临床医学", "岭南学院", "管理学院", "国际商学院", "哲学", "中文", "生物"],
      "description": "中山大学是伟大的民主革命先行者孙中山先生亲手创办的高等学府。",
      "ranking": 17,
      "region": "华南"
    },
    {
      "id": 18,
      "name": "武汉大学",
      "nameEn": "Wuhan University",
      "city": "武汉",
      "province": "湖北省",
      "coordinates": [30.5447, 114.3609],
      "website": "http://www.whu.edu.cn",
      "established": 1893,
      "type": "综合类",
      "specialties": ["金融学", "水利类", "测绘类", "法学", "新闻学", "图书馆学", "档案学"],
      "description": "武汉大学是近代中国第一批国立大学，被誉为'中国最美的大学之一'。",
      "ranking": 18,
      "region": "华中"
    },
    {
      "id": 19,
      "name": "厦门大学",
      "nameEn": "Xiamen University",
      "city": "厦门",
      "province": "福建省",
      "coordinates": [24.4353, 118.0886],
      "website": "http://www.xmu.edu.cn",
      "established": 1921,
      "type": "综合类",
      "specialties": ["会计学", "金融学", "经济学", "财政学", "国际经济与贸易", "法学"],
      "description": "厦门大学是由著名爱国华侨领袖陈嘉庚先生创办的综合性大学。",
      "ranking": 19,
      "region": "华东"
    },
    {
      "id": 20,
      "name": "北京师范大学",
      "nameEn": "Beijing Normal University",
      "city": "北京",
      "province": "北京市",
      "coordinates": [39.9590, 116.3203],
      "website": "http://www.bnu.edu.cn",
      "established": 1902,
      "type": "师范类",
      "specialties": ["心理学", "教育学", "中国语言文学", "历史学", "地理学", "数学"],
      "description": "北京师范大学是教育部直属重点大学，是一所以教师教育、教育科学和文理基础学科为主要特色的著名学府。",
      "ranking": 20,
      "region": "华北"
    },
    {
      "id": 21,
      "name": "国防科技大学",
      "nameEn": "National University of Defense Technology",
      "city": "长沙",
      "province": "湖南省",
      "coordinates": [28.2104, 112.9388],
      "website": "http://www.nudt.edu.cn",
      "established": 1953,
      "type": "军事类",
      "specialties": ["计算机科学与技术", "通信工程", "软件工程", "光学工程", "航空宇航科学与技术"],
      "description": "国防科技大学是军队唯一进入国家'985工程'建设行列的院校，也是军队唯一一所国家'双一流'建设高校。",
      "ranking": 21,
      "region": "华中"
    },
    {
      "id": 22,
      "name": "中南大学",
      "nameEn": "Central South University",
      "city": "长沙",
      "province": "湖南省",
      "coordinates": [28.2104, 112.9388],
      "website": "http://www.csu.edu.cn",
      "established": 2000,
      "type": "综合类",
      "specialties": ["临床医学", "材料类", "冶金工程", "土木工程", "交通运输工程", "矿业工程"],
      "description": "中南大学是教育部直属的全国重点大学，由原湖南医科大学、长沙铁道学院与中南工业大学合并组建而成。",
      "ranking": 22,
      "region": "华中"
    },
    {
      "id": 23,
      "name": "华南理工大学",
      "nameEn": "South China University of Technology",
      "city": "广州",
      "province": "广东省",
      "coordinates": [23.0965, 113.3212],
      "website": "http://www.scut.edu.cn",
      "established": 1952,
      "type": "工科类",
      "specialties": ["土木工程", "建筑学", "电气工程及其自动化", "机械设计制造及其自动化", "化学工程与技术"],
      "description": "华南理工大学是直属教育部的全国重点大学，是华南地区工科实力最强的大学。",
      "ranking": 23,
      "region": "华南"
    },
    {
      "id": 24,
      "name": "大连理工大学",
      "nameEn": "Dalian University of Technology",
      "city": "大连",
      "province": "辽宁省",
      "coordinates": [38.9140, 121.6147],
      "website": "http://www.dlut.edu.cn",
      "established": 1949,
      "type": "工科类",
      "specialties": ["船舶与海洋工程", "机械设计制造及其自动化", "化学工程与技术", "土木工程", "水利工程"],
      "description": "大连理工大学是教育部直属全国重点大学，是中国共产党在新中国成立前夕创办的第一所新型正规大学。",
      "ranking": 24,
      "region": "东北"
    },
    {
      "id": 25,
      "name": "西北工业大学",
      "nameEn": "Northwestern Polytechnical University",
      "city": "西安",
      "province": "陕西省",
      "coordinates": [34.2533, 108.9156],
      "website": "http://www.nwpu.edu.cn",
      "established": 1938,
      "type": "工科类",
      "specialties": ["材料工程", "航空宇航科学与技术", "机械工程", "力学", "计算机科学", "控制科学"],
      "description": "西北工业大学是一所以发展航空、航天、航海（三航）等领域人才培养和科学研究为特色的多科性、研究型、开放式大学。",
      "ranking": 25,
      "region": "西北"
    },
    {
      "id": 26,
      "name": "重庆大学",
      "nameEn": "Chongqing University",
      "city": "重庆",
      "province": "重庆市",
      "coordinates": [29.5630, 106.5516],
      "website": "http://www.cqu.edu.cn",
      "established": 1929,
      "type": "综合类",
      "specialties": ["建筑学", "土木工程", "机械工程", "电气工程", "计算机科学与技术"],
      "description": "重庆大学是教育部直属的全国重点大学，是国家'211工程'和'985工程'重点建设的高水平研究型综合性大学。",
      "ranking": 26,
      "region": "西南"
    },
    {
      "id": 27,
      "name": "电子科技大学",
      "nameEn": "University of Electronic Science and Technology of China",
      "city": "成都",
      "province": "四川省",
      "coordinates": [30.6712, 104.0647],
      "website": "http://www.uestc.edu.cn",
      "established": 1956,
      "type": "工科类",
      "specialties": ["电子科学与技术", "信息与通信工程", "计算机科学与技术", "光学工程", "生物医学工程"],
      "description": "电子科技大学原名成都电讯工程学院，是中国最早的七所重点国防院校之一。",
      "ranking": 27,
      "region": "西南"
    },
    {
      "id": 28,
      "name": "吉林大学",
      "nameEn": "Jilin University",
      "city": "长春",
      "province": "吉林省",
      "coordinates": [43.8171, 125.3235],
      "website": "http://www.jlu.edu.cn",
      "established": 1946,
      "type": "综合类",
      "specialties": ["车辆工程", "法学", "化学", "材料科学与工程", "计算机科学与技术", "临床医学"],
      "description": "吉林大学是教育部直属的全国重点综合性大学，是国家'211工程'和'985工程'重点建设的高水平大学。",
      "ranking": 28,
      "region": "东北"
    },
    {
      "id": 29,
      "name": "四川大学",
      "nameEn": "Sichuan University",
      "city": "成都",
      "province": "四川省",
      "coordinates": [30.6712, 104.0647],
      "website": "http://www.scu.edu.cn",
      "established": 1896,
      "type": "综合类",
      "specialties": ["口腔医学", "临床医学", "数学", "材料科学与工程", "生物医学工程", "水利工程"],
      "description": "四川大学是教育部直属全国重点大学，是布局在中国西部、'985工程'重点建设的高水平研究型综合大学。",
      "ranking": 29,
      "region": "西南"
    },
    {
      "id": 30,
      "name": "湖南大学",
      "nameEn": "Hunan University",
      "city": "长沙",
      "province": "湖南省",
      "coordinates": [28.2104, 112.9388],
      "website": "http://www.hnu.edu.cn",
      "established": 976,
      "type": "综合类",
      "specialties": ["土木工程", "车辆工程", "化学", "机械工程", "电气工程", "材料科学与工程"],
      "description": "湖南大学坐落在湖南省长沙市岳麓山下，是历史悠久、声誉斐然的著名大学，素有'千年学府、百年名校'之称。",
      "ranking": 30,
      "region": "华中"
    },
    {
      "id": 31,
      "name": "山东大学",
      "nameEn": "Shandong University",
      "city": "济南",
      "province": "山东省",
      "coordinates": [36.6758, 116.9974],
      "website": "http://www.sdu.edu.cn",
      "established": 1901,
      "type": "综合类",
      "specialties": ["数学", "材料工程", "物理", "机械制造", "控制工程", "医学", "经济学", "文学", "历史学"],
      "description": "山东大学是一所历史悠久、学科齐全、实力雄厚、特色鲜明的教育部直属重点综合性大学。",
      "ranking": 31,
      "region": "华东"
    },
    {
      "id": 32,
      "name": "兰州大学",
      "nameEn": "Lanzhou University",
      "city": "兰州",
      "province": "甘肃省",
      "coordinates": [36.0611, 103.8343],
      "website": "http://www.lzu.edu.cn",
      "established": 1909,
      "type": "综合类",
      "specialties": ["物理学类", "化学类", "大气科学类", "地理学", "生物学", "生态学"],
      "description": "兰州大学是教育部直属的全国重点综合性大学，是国家'985工程'和'211工程'重点建设高校之一。",
      "ranking": 32,
      "region": "西北"
    },
    {
      "id": 33,
      "name": "东北大学",
      "nameEn": "Northeastern University",
      "city": "沈阳",
      "province": "辽宁省",
      "coordinates": [41.8057, 123.4315],
      "website": "http://www.neu.edu.cn",
      "established": 1923,
      "type": "工科类",
      "specialties": ["自动化", "计算机", "冶金工程", "采矿工程", "材料", "机械设计制造及其自动化", "软件工程"],
      "description": "东北大学是教育部直属的全国重点大学，是一所以工为主的多科性大学。",
      "ranking": 33,
      "region": "东北"
    },
    {
      "id": 34,
      "name": "华东师范大学",
      "nameEn": "East China Normal University",
      "city": "上海",
      "province": "上海市",
      "coordinates": [31.3001, 121.4978],
      "website": "http://www.ecnu.edu.cn",
      "established": 1951,
      "type": "师范类",
      "specialties": ["地理学", "数学", "光学", "生命科学", "教育学", "文学", "心理学"],
      "description": "华东师范大学是新中国组建的第一所社会主义师范大学，是教育部直属全国重点大学。",
      "ranking": 34,
      "region": "华东"
    },
    {
      "id": 35,
      "name": "中国农业大学",
      "nameEn": "China Agricultural University",
      "city": "北京",
      "province": "北京市",
      "coordinates": [40.0020, 116.3203],
      "website": "http://www.cau.edu.cn",
      "established": 1905,
      "type": "农林类",
      "specialties": ["农业工程", "植物保护", "农业资源利用", "作物学", "畜牧学", "农产品加工", "生命科学"],
      "description": "中国农业大学是教育部直属的全国重点大学，是我国现代农业高等教育的起源地。",
      "ranking": 35,
      "region": "华北"
    },
    {
      "id": 36,
      "name": "中国海洋大学",
      "nameEn": "Ocean University of China",
      "city": "青岛",
      "province": "山东省",
      "coordinates": [36.0986, 120.3719],
      "website": "http://www.ouc.edu.cn",
      "established": 1924,
      "type": "海洋类",
      "specialties": ["海洋科学", "海洋技术", "水产养殖", "港口航道与海岸工程", "船舶与海洋工程"],
      "description": "中国海洋大学是一所以海洋和水产学科特色显著、学科门类齐全的教育部直属重点综合性大学。",
      "ranking": 36,
      "region": "华东"
    },
    {
      "id": 37,
      "name": "西北农林科技大学",
      "nameEn": "Northwest A&F University",
      "city": "杨凌",
      "province": "陕西省",
      "coordinates": [34.2533, 108.9156],
      "website": "http://www.nwafu.edu.cn",
      "established": 1934,
      "type": "农林类",
      "specialties": ["动物医学", "动物科学", "园艺", "植物保护", "林学", "农业水利工程"],
      "description": "西北农林科技大学是教育部直属、国家'985工程'和'211工程'重点建设高校，是西北地区最早的高等农林教育学府。",
      "ranking": 37,
      "region": "西北"
    },
    {
      "id": 38,
      "name": "中央民族大学",
      "nameEn": "Minzu University of China",
      "city": "北京",
      "province": "北京市",
      "coordinates": [39.9590, 116.3203],
      "website": "http://www.muc.edu.cn",
      "established": 1941,
      "type": "民族类",
      "specialties": ["民族学", "中国少数民族语言文学", "历史学", "哲学", "经济学", "法学"],
      "description": "中央民族大学是党和国家为解决中国民族问题、培养少数民族干部和高级专门人才而创建的一所具有鲜明特色的高等学校。",
      "ranking": 38,
      "region": "华北"
    },
    {
      "id": 39,
      "name": "中国科学院大学",
      "nameEn": "University of Chinese Academy of Sciences",
      "city": "北京",
      "province": "北京市",
      "coordinates": [39.9911, 116.3059],
      "website": "http://www.ucas.ac.cn",
      "established": 1978,
      "type": "科研类",
      "specialties": ["数学", "物理学", "化学", "天文学", "地理学", "生物学", "计算机科学与技术"],
      "description": "中国科学院大学是中国科学院直属的一所创新型大学，以研究生教育为主，科研实力雄厚。",
      "ranking": 39,
      "region": "华北"
    }
  ],
  "regions": {
    "华北": ["北京市", "天津市", "河北省", "山西省", "内蒙古自治区"],
    "华东": ["上海市", "江苏省", "浙江省", "安徽省", "福建省", "江西省", "山东省"],
    "华南": ["广东省", "广西壮族自治区", "海南省"],
    "华中": ["河南省", "湖北省", "湖南省"],
    "西南": ["重庆市", "四川省", "贵州省", "云南省", "西藏自治区"],
    "西北": ["陕西省", "甘肃省", "青海省", "宁夏回族自治区", "新疆维吾尔自治区"],
    "东北": ["辽宁省", "吉林省", "黑龙江省"]
  }
}